[
  {
    "name":"ámaZ Restaurante",
    "image": "http://patriciaarata.com/wp-content/uploads/2014/11/Donde-comer-en-Lima.jpg",
    "district":"Miraflores",
    "address":"Av.La Paz 1079",
    "ocassionToEat":"Para disfrutar en familia",
    "typeFood": "Peruana",
    "phone":"+511 2219393",
    "hours": "Lunes a viernes / 1-10pm",
    "overage plate": "Desde S/.110 por persona "
  },
  {
    "name":"Aromas Peruanos",
    "image": "https://www.mesa247.pe/archivos/aromas-peruanos-restaurante-sac/aromas-peruanos/thumbs/aromas-peruanos_main.jpg",
    "district":"San Isidro",
    "address":"Av. Guardia Civil 856",
    "ocassionToEat":"Para disfrutar en familia",
    "typeFood": "Peruana",
    "phone":"(01) 2241482",
    "hours": "Lunes a Sábado / 12:30pm -22:00",
    "overage plate": "Desde S/.66 por persona "
  },
  {
    "name":"La Piccolina",
    "image": "https://www.atrapalo.pe/common/photo/res/47856/0/ticr_890_370.jpg",
    "district":"Surco",
    "address":"Av. Caminos del Inca, cuadra 21 S/N. Parque de la Amistad Surco",
    "ocassionToEat":"Para disfrutar en familia",
    "typeFood": "Pastas",
    "phone":"(01) 4343450",
    "hours": "Martes a Domingo / 9am -20:00",
    "overage plate": "Desde S/.40 por persona "
  },
  {
    "name":"El Señorio de Sulco",
    "image": "https://media-cdn.tripadvisor.com/media/photo-s/09/2e/17/76/el-senorio-de-sulco.jpg",
    "district":"Miraflores",
    "address":"Malecón Cisneros 1470",
    "ocassionToEat":"Momento Romántico",
    "typeFood": "Peruana",
    "phone":"(01) 4410183",
    "hours": "Lunes a Domingo / 12:30 -22:00",
    "overage plate": "Desde S/.110 por persona "
  },
  {
    "name":"Restaurante La Romántica",
    "image": "http://patriciaarata.com/wp-content/uploads/2014/11/Donde-comer-en-Lima.jpg",
    "district":"Miraflores",
    "address":"General Córdova N° 1155",
    "ocassionToEat":"Momento romántico",
    "phone":"(01) 4218549",
    "hours": "Lunes a Domingo / 12:30-23:00",
    "overage plate": "Desde S/.110 por persona "
  },
  {
    "name":"ámaZ Restaurante",
    "image": "http://patriciaarata.com/wp-content/uploads/2014/11/Donde-comer-en-Lima.jpg",
    "district":"Miraflores",
    "address":"Av.La Paz 1079",
    "phone":"+511 2219393",
    "hours": "Lunes a viernes / 1-10pm",
    "overage plate": "Desde S/.110 por persona "
  },
  {
    "name":"ámaZ Restaurante",
    "image": "http://patriciaarata.com/wp-content/uploads/2014/11/Donde-comer-en-Lima.jpg",
    "district":"Miraflores",
    "address":"Av.La Paz 1079",
    "phone":"+511 2219393",
    "hours": "Lunes a viernes / 1-10pm",
    "overage plate": "Desde S/.110 por persona "
  },
  {
    "name":"ámaZ Restaurante",
    "image": "http://patriciaarata.com/wp-content/uploads/2014/11/Donde-comer-en-Lima.jpg",
    "district":"Miraflores",
    "address":"Av.La Paz 1079",
    "phone":"+511 2219393",
    "hours": "Lunes a viernes / 1-10pm",
    "overage plate": "Desde S/.110 por persona "
  }
]